{"type":"FeatureCollection","features":[{"type":"Feature","geometry":{"type":"Point","coordinates":[20.000205925005787,41.04848368254786]},"properties":{"id":0,"name":"ALBANIA"}},{"type":"Feature","geometry":{"type":"Point","coordinates":[13.573597027108665,47.57518999057136]},"properties":{"id":3,"name":"AUSTRIA"}},{"type":"Feature","geometry":{"type":"Point","coordinates":[4.912742577596493,50.51794669774468]},"properties":{"id":4,"name":"BELGIUM"}},{"type":"Feature","geometry":{"type":"Point","coordinates":[25.21549517005809,42.4992009728067]},"properties":{"id":5,"name":"BULGARIA"}},{"type":"Feature","geometry":{"type":"Point","coordinates":[17.91533384786858,44.26305691662765]},"properties":{"id":6,"name":"BOSNIA AND HERZ."}},{"type":"Feature","geometry":{"type":"Point","coordinates":[28.313553523315832,53.32279935877876]},"properties":{"id":7,"name":"BELARUS"}},{"type":"Feature","geometry":{"type":"Point","coordinates":[8.287314800442454,46.780517812247]},"properties":{"id":8,"name":"SWITZERLAND"}},{"type":"Feature","geometry":{"type":"Point","coordinates":[33.54209307546173,35.19467501655571]},"properties":{"id":10,"name":"N. CYPRUS"}},{"type":"Feature","geometry":{"type":"Point","coordinates":[33.2413834806655,34.96114647039749]},"properties":{"id":11,"name":"CYPRUS"}},{"type":"Feature","geometry":{"type":"Point","coordinates":[15.285799075349324,49.91307764533193]},"properties":{"id":12,"name":"CZECH REP."}},{"type":"Feature","geometry":{"type":"Point","coordinates":[10.570566859393383,51.799756467521554]},"properties":{"id":13,"name":"GERMANY"}},{"type":"Feature","geometry":{"type":"Point","coordinates":[10.355056434603119,55.80862712601408]},"properties":{"id":14,"name":"DENMARK"}},{"type":"Feature","geometry":{"type":"Point","coordinates":[3.6298646241114483,35.94796755244766]},"properties":{"id":15,"name":"ALGERIA"}},{"type":"Feature","geometry":{"type":"Point","coordinates":[-3.4702917293037436,40.753602887829814]},"properties":{"id":17,"name":"SPAIN"}},{"type":"Feature","geometry":{"type":"Point","coordinates":[24.185028048832717,58.6242710407417]},"properties":{"id":18,"name":"ESTONIA"}},{"type":"Feature","geometry":{"type":"Point","coordinates":[23.169736563858468,61.280051915388945]},"properties":{"id":19,"name":"FINLAND"}},{"type":"Feature","geometry":{"type":"Point","coordinates":[2.1129971466796853,46.3262343265391]},"properties":{"id":20,"name":"FRANCE"}},{"type":"Feature","geometry":{"type":"Point","coordinates":[-4.18771902087539,55.85880885491541]},"properties":{"id":22,"name":"UNITED KINGDOM"}},{"type":"Feature","geometry":{"type":"Point","coordinates":[40.04813447785673,43.44485401364215]},"properties":{"id":23,"name":"GEORGIA"}},{"type":"Feature","geometry":{"type":"Point","coordinates":[23.846816724191648,38.24958689392737]},"properties":{"id":26,"name":"GREECE"}},{"type":"Feature","geometry":{"type":"Point","coordinates":[16.055884486274294,44.53904658270742]},"properties":{"id":27,"name":"CROATIA"}},{"type":"Feature","geometry":{"type":"Point","coordinates":[19.192165902591363,47.157095646122556]},"properties":{"id":28,"name":"HUNGARY"}},{"type":"Feature","geometry":{"type":"Point","coordinates":[-8.657138464460754,53.33547647048571]},"properties":{"id":30,"name":"IRELAND"}},{"type":"Feature","geometry":{"type":"Point","coordinates":[39.37480277475518,33.557756009009374]},"properties":{"id":31,"name":"IRAQ"}},{"type":"Feature","geometry":{"type":"Point","coordinates":[35.53273665876753,33.19665452082204]},"properties":{"id":32,"name":"ISRAEL"}},{"type":"Feature","geometry":{"type":"Point","coordinates":[11.767320471656049,41.99042167468718]},"properties":{"id":33,"name":"ITALY"}},{"type":"Feature","geometry":{"type":"Point","coordinates":[38.562133691847826,33.145396264375066]},"properties":{"id":35,"name":"JORDAN"}},{"type":"Feature","geometry":{"type":"Point","coordinates":[20.881665186254708,42.55702078355359]},"properties":{"id":36,"name":"KOSOVO"}},{"type":"Feature","geometry":{"type":"Point","coordinates":[35.8812424480204,33.889041983768436]},"properties":{"id":37,"name":"LEBANON"}},{"type":"Feature","geometry":{"type":"Point","coordinates":[11.637047680357352,33.10753891608646]},"properties":{"id":38,"name":"LIBYA"}},{"type":"Feature","geometry":{"type":"Point","coordinates":[23.850367351895965,55.06109234079119]},"properties":{"id":40,"name":"LITHUANIA"}},{"type":"Feature","geometry":{"type":"Point","coordinates":[6.059559328806206,49.80806169452049]},"properties":{"id":41,"name":"LUXEMBOURG"}},{"type":"Feature","geometry":{"type":"Point","coordinates":[24.598862176807096,56.906957473817485]},"properties":{"id":42,"name":"LATVIA"}},{"type":"Feature","geometry":{"type":"Point","coordinates":[-4.453070927386454,34.7426641754826]},"properties":{"id":43,"name":"MOROCCO"}},{"type":"Feature","geometry":{"type":"Point","coordinates":[28.406460046408117,47.13288355722552]},"properties":{"id":45,"name":"MOLDOVA"}},{"type":"Feature","geometry":{"type":"Point","coordinates":[21.744298921928664,41.5799910777171]},"properties":{"id":46,"name":"MACEDONIA"}},{"type":"Feature","geometry":{"type":"Point","coordinates":[14.380567499207656,35.94412623413215]},"properties":{"id":47,"name":"MALTA"}},{"type":"Feature","geometry":{"type":"Point","coordinates":[19.20414349780666,42.66616049493966]},"properties":{"id":48,"name":"MONTENEGRO"}},{"type":"Feature","geometry":{"type":"Point","coordinates":[5.271169022851068,51.94283303617731]},"properties":{"id":49,"name":"NETHERLANDS"}},{"type":"Feature","geometry":{"type":"Point","coordinates":[7.1391898005012475,61.075856030624706]},"properties":{"id":50,"name":"NORWAY"}},{"type":"Feature","geometry":{"type":"Point","coordinates":[18.861246538482327,51.523621465055115]},"properties":{"id":51,"name":"POLAND"}},{"type":"Feature","geometry":{"type":"Point","coordinates":[-7.951400874694268,39.6373566211983]},"properties":{"id":52,"name":"PORTUGAL"}},{"type":"Feature","geometry":{"type":"Point","coordinates":[25.466572002791747,45.9090877719583]},"properties":{"id":53,"name":"ROMANIA"}},{"type":"Feature","geometry":{"type":"Point","coordinates":[32.90580622208428,52.73191509489342]},"properties":{"id":54,"name":"RUSSIA"}},{"type":"Feature","geometry":{"type":"Point","coordinates":[20.763545074081236,44.224466510714024]},"properties":{"id":56,"name":"SERBIA"}},{"type":"Feature","geometry":{"type":"Point","coordinates":[19.7087996599319,48.78628044419766]},"properties":{"id":57,"name":"SLOVAKIA"}},{"type":"Feature","geometry":{"type":"Point","coordinates":[14.981922711185398,46.14036748332244]},"properties":{"id":58,"name":"SLOVENIA"}},{"type":"Feature","geometry":{"type":"Point","coordinates":[16.642666479321598,59.28749545909459]},"properties":{"id":59,"name":"SWEDEN"}},{"type":"Feature","geometry":{"type":"Point","coordinates":[36.51376214539694,35.0785742167586]},"properties":{"id":60,"name":"SYRIA"}},{"type":"Feature","geometry":{"type":"Point","coordinates":[10.074805959614814,35.36554718150125]},"properties":{"id":61,"name":"TUNISIA"}},{"type":"Feature","geometry":{"type":"Point","coordinates":[29.742710297941375,38.754853401614696]},"properties":{"id":62,"name":"TURKEY"}},{"type":"Feature","geometry":{"type":"Point","coordinates":[31.306132893819182,48.00605819723689]},"properties":{"id":63,"name":"UKRAINE"}}]}
